file,lat,lon,altBaro,roll,pitch,yaw,time,altGPS,alt
2022_09_27_B09_g201b20035_f009_003.JPG,62.54508,150.8531737,543.789,5.09,-0.1,-67.02,2022-09-27 01:08:40.352377,539.722,541.7555
2022_09_27_B09_g201b20035_f009_004.JPG,62.5451764,150.8526197,541.577,0.12,2.54,-70.67,2022-09-27 01:08:41.732424,536.862,539.2194999999999
2022_09_27_B09_g201b20035_f009_005.JPG,62.5452711,150.8520463,540.071,-5.41,7.64,-69.35,2022-09-27 01:08:43.132377,534.781,537.4259999999999
2022_09_27_B09_g201b20035_f009_006.JPG,62.5453745,150.8514824,539.63,3.67,8.07,-68.51,2022-09-27 01:08:44.532433,534.739,537.1845000000001
2022_09_27_B09_g201b20035_f009_007.JPG,62.5454681,150.850919,539.099,-6.87,4.41,-70.89,2022-09-27 01:08:45.932510,534.327,536.713
2022_09_27_B09_g201b20035_f009_008.JPG,62.5455701,150.8503471,537.859,-0.26,6.5,-68.39,2022-09-27 01:08:47.352383,533.61,535.7345
2022_09_27_B09_g201b20035_f009_009.JPG,62.5456707,150.8497644,537.77,-2.76,7.21,-70.57,2022-09-27 01:08:48.732520,532.85,535.31
2022_09_27_B09_g201b20035_f009_010.JPG,62.5457686,150.8491752,537.418,-4.02,11.15,-69.98,2022-09-27 01:08:50.132549,532.405,534.9114999999999
2022_09_27_B09_g201b20035_f009_011.JPG,62.5458719,150.848601,537.064,3.32,9.94,-67.87,2022-09-27 01:08:51.532601,532.39,534.727
2022_09_27_B09_g201b20035_f009_012.JPG,62.5459704,150.8480212,538.213,-0.96,8.64,-71.04,2022-09-27 01:08:52.952539,532.283,535.248
2022_09_27_B09_g201b20035_f009_013.JPG,62.546064,150.8474313,539.363,-7.37,10.29,-69.9,2022-09-27 01:08:54.352545,533.567,536.465
2022_09_27_B09_g201b20035_f009_014.JPG,62.5461689,150.8468681,542.462,3.3,12.76,-67.51,2022-09-27 01:08:55.732631,536.711,539.5865
2022_09_27_B09_g201b20035_f009_015.JPG,62.5462651,150.8463236,545.028,-1.12,7.93,-69.82,2022-09-27 01:08:57.132614,539.1,542.0640000000001
2022_09_27_B09_g201b20035_f009_016.JPG,62.5463556,150.8457878,545.736,-3.22,3.43,-69.57,2022-09-27 01:08:58.532683,539.845,542.7905000000001
2022_09_27_B09_g201b20035_f009_017.JPG,62.5464489,150.8452589,546.18,0.47,5.5,-69.01,2022-09-27 01:08:59.932655,540.48,543.3299999999999
2022_09_27_B09_g201b20035_f009_018.JPG,62.5465395,150.8447245,546.534,-0.66,4.11,-69.97,2022-09-27 01:09:01.352658,540.498,543.5160000000001
2022_09_27_B09_g201b20035_f009_019.JPG,62.5466318,150.844185,545.736,-1.66,4.3,-68.9,2022-09-27 01:09:02.732718,539.841,542.7885
2022_09_27_B09_g201b20035_f009_020.JPG,62.5467273,150.8436388,544.056,-3.08,3.97,-69.23,2022-09-27 01:09:04.132798,537.918,540.9870000000001
2022_09_27_B09_g201b20035_f009_021.JPG,62.5468255,150.8430771,542.372,-0.42,4.65,-69.23,2022-09-27 01:09:05.532779,535.883,539.1275
2022_09_27_B09_g201b20035_f009_022.JPG,62.5469229,150.8425076,543.347,-1.52,11.63,-69.83,2022-09-27 01:09:06.932854,536.12,539.7335
2022_09_27_B09_g201b20035_f009_023.JPG,62.5470163,150.8419682,545.118,-4.79,8.23,-68.8,2022-09-27 01:09:08.352896,538.07,541.594
2022_09_27_B09_g201b20035_f009_024.JPG,62.5471126,150.8414476,546.003,2.38,4.83,-68.23,2022-09-27 01:09:09.732883,538.914,542.4585
2022_09_27_B09_g201b20035_f009_025.JPG,62.5472016,150.8409154,544.851,-1.67,0.51,-70.45,2022-09-27 01:09:11.132956,538.241,541.546
2022_09_27_B09_g201b20035_f009_026.JPG,62.5472963,150.8403651,543.701,0.97,2.93,-68.52,2022-09-27 01:09:12.532950,536.802,540.2515000000001
2022_09_27_B09_g201b20035_f009_027.JPG,62.5473945,150.8398024,543.612,-0.83,5.52,-69.51,2022-09-27 01:09:13.933028,536.251,539.9314999999999
2022_09_27_B09_g201b20035_f009_028.JPG,62.5474905,150.8392477,544.143,-3.47,3.52,-69.48,2022-09-27 01:09:15.352963,536.838,540.4905
2022_09_27_B09_g201b20035_f009_029.JPG,62.547585,150.8386989,543.879,-0.13,2.94,-69.67,2022-09-27 01:09:16.732969,536.904,540.3915
2022_09_27_B09_g201b20035_f009_030.JPG,62.547679,150.838146,542.816,-1.35,1.53,-69.61,2022-09-27 01:09:18.133000,535.846,539.331
2022_09_27_B09_g201b20035_f009_031.JPG,62.5477785,150.8375839,541.223,-1.26,1.33,-68.58,2022-09-27 01:09:19.533080,534.523,537.873
2022_09_27_B09_g201b20035_f009_032.JPG,62.5478801,150.8370137,540.248,0.69,1.74,-69.18,2022-09-27 01:09:20.933022,533.21,536.729
2022_09_27_B09_g201b20035_f009_033.JPG,62.5479785,150.8364433,538.922,0.02,2.63,-69.62,2022-09-27 01:09:22.353108,532.174,535.548
2022_09_27_B09_g201b20035_f009_034.JPG,62.5480749,150.8358783,536.533,-5.43,0.01,-69.61,2022-09-27 01:09:23.733118,530.041,533.287
2022_09_27_B09_g201b20035_f009_035.JPG,62.5481781,150.8353112,532.287,-0.13,-0.6,-68.15,2022-09-27 01:09:25.133112,525.927,529.107
2022_09_27_B09_g201b20035_f009_036.JPG,62.5482822,150.8347297,529.016,3.29,1.55,-69.71,2022-09-27 01:09:26.533225,521.701,525.3585
2022_09_27_B09_g201b20035_f009_037.JPG,62.5483781,150.8341333,526.717,-5.03,6.05,-70.79,2022-09-27 01:09:27.933244,519.708,523.2125
2022_09_27_B09_g201b20035_f009_038.JPG,62.5484775,150.8335611,525.48,-0.48,4.53,-68.36,2022-09-27 01:09:29.353178,519.008,522.244
2022_09_27_B09_g201b20035_f009_039.JPG,62.5485776,150.8329997,523.8,4.33,0.49,-69.48,2022-09-27 01:09:30.733262,517.2,520.5
2022_09_27_B09_g201b20035_f009_040.JPG,62.5486741,150.8324141,521.768,-6.15,5.91,-69.89,2022-09-27 01:09:32.133285,514.432,518.1
2022_09_27_B09_g201b20035_f009_041.JPG,62.5487816,150.8318375,521.15,3.35,8.32,-67.45,2022-09-27 01:09:33.533271,514.566,517.858
2022_09_27_B09_g201b20035_f009_042.JPG,62.5488805,150.8312755,520.885,-1.62,2.35,-70.14,2022-09-27 01:09:34.933274,514.753,517.819
2022_09_27_B09_g201b20035_f009_043.JPG,62.5489792,150.8307012,520.0,-3.67,3.09,-68.63,2022-09-27 01:09:36.353405,513.67,516.835
2022_09_27_B09_g201b20035_f009_044.JPG,62.5490867,150.8301244,520.444,5.49,4.55,-68.87,2022-09-27 01:09:37.733433,514.609,517.5264999999999
2022_09_27_B09_g201b20035_f009_045.JPG,62.5491818,150.8295516,520.354,-0.92,2.05,-70.68,2022-09-27 01:09:39.133430,514.452,517.403
2022_09_27_B09_g201b20035_f009_046.JPG,62.5492799,150.8289764,521.062,-3.95,5.24,-68.96,2022-09-27 01:09:40.533456,514.596,517.829
2022_09_27_B09_g201b20035_f009_047.JPG,62.5493837,150.82842,523.094,5.3,4.72,-68.0,2022-09-27 01:09:41.933586,517.057,520.0755
2022_09_27_B09_g201b20035_f009_048.JPG,62.5494774,150.8278771,523.269,1.22,0.62,-70.38,2022-09-27 01:09:43.353537,517.253,520.261
2022_09_27_B09_g201b20035_f009_049.JPG,62.5495663,150.8273219,521.768,-4.59,2.52,-70.53,2022-09-27 01:09:44.733528,515.279,518.5235
2022_09_27_B09_g201b20035_f009_050.JPG,62.5496618,150.82676,520.177,-1.34,3.94,-69.69,2022-09-27 01:09:46.133512,513.886,517.0315
2022_09_27_B09_g201b20035_f009_051.JPG,62.5497596,150.8262006,518.854,-0.04,3.75,-69.1,2022-09-27 01:09:47.533604,512.848,515.851
2022_09_27_B09_g201b20035_f009_052.JPG,62.5498578,150.8256455,518.145,-0.35,2.63,-69.0,2022-09-27 01:09:48.933614,511.819,514.982
2022_09_27_B09_g201b20035_f009_053.JPG,62.5499538,150.8250787,517.971,-2.11,4.33,-70.37,2022-09-27 01:09:50.353613,511.238,514.6045
2022_09_27_B09_g201b20035_f009_054.JPG,62.5500511,150.824515,517.617,-2.11,5.28,-68.73,2022-09-27 01:09:51.733660,511.295,514.456
2022_09_27_B09_g201b20035_f009_055.JPG,62.5501525,150.8239575,516.822,1.02,2.2,-68.79,2022-09-27 01:09:53.133657,510.39,513.606
2022_09_27_B09_g201b20035_f009_056.JPG,62.5502503,150.8233863,516.557,-1.0,6.75,-70.17,2022-09-27 01:09:54.533772,509.555,513.056
2022_09_27_B09_g201b20035_f009_057.JPG,62.5503459,150.8228292,517.353,0.72,6.73,-68.93,2022-09-27 01:09:55.933765,511.182,514.2674999999999
2022_09_27_B09_g201b20035_f009_058.JPG,62.5504415,150.8222823,517.44,-1.58,3.57,-69.48,2022-09-27 01:09:57.353825,511.228,514.3340000000001
2022_09_27_B09_g201b20035_f009_059.JPG,62.5505385,150.8217237,516.026,-2.07,3.75,-69.48,2022-09-27 01:09:58.733741,509.779,512.9024999999999
2022_09_27_B09_g201b20035_f009_060.JPG,62.5506376,150.8211516,514.526,2.49,6.64,-69.84,2022-09-27 01:10:00.133821,508.515,511.5205
2022_09_27_B09_g201b20035_f009_061.JPG,62.5507337,150.8205677,514.703,-2.38,8.24,-70.29,2022-09-27 01:10:01.533872,508.335,511.519
2022_09_27_B09_g201b20035_f009_062.JPG,62.5508347,150.8199887,515.675,-1.64,8.06,-68.89,2022-09-27 01:10:02.933797,509.668,512.6714999999999
2022_09_27_B09_g201b20035_f009_063.JPG,62.5509374,150.8194163,516.203,0.78,5.99,-68.94,2022-09-27 01:10:04.353878,510.462,513.3325
2022_09_27_B09_g201b20035_f009_064.JPG,62.5510391,150.8188289,515.939,2.41,6.04,-69.65,2022-09-27 01:10:05.733925,510.011,512.975
2022_09_27_B09_g201b20035_f009_065.JPG,62.5511386,150.8182291,515.321,-1.64,5.88,-69.97,2022-09-27 01:10:07.133982,509.275,512.298
2022_09_27_B09_g201b20035_f009_066.JPG,62.5512303,150.8177096,515.411,-3.41,9.95,-68.39,2022-09-27 01:10:08.353962,509.167,512.289
2022_09_27_B09_g201b20035_f009_067.JPG,62.551327,150.8172024,517.263,3.89,10.04,-67.24,2022-09-27 01:10:09.533971,510.805,514.034
2022_09_27_B09_g201b20035_f009_068.JPG,62.5512843,150.8168434,518.412,3.48,10.2,-105.52,2022-09-27 01:10:38.354492,513.248,515.83
2022_09_27_B09_g201b20035_f009_069.JPG,62.5512023,150.8163089,518.677,9.29,-2.79,-112.88,2022-09-27 01:10:39.734508,514.397,516.537
2022_09_27_B09_g201b20035_f009_070.JPG,62.5510876,150.8157944,517.53,-6.68,5.26,-116.04,2022-09-27 01:10:41.134509,512.593,515.0615
2022_09_27_B09_g201b20035_f009_071.JPG,62.5509846,150.815281,516.47,1.88,3.58,-112.25,2022-09-27 01:10:42.534509,512.819,514.6445
2022_09_27_B09_g201b20035_f009_072.JPG,62.5508673,150.8147209,512.937,9.59,-6.13,-116.08,2022-09-27 01:10:44.134552,509.618,511.2775
2022_09_27_B09_g201b20035_f009_073.JPG,62.550738,150.8142415,506.496,-5.69,-3.63,-121.93,2022-09-27 01:10:45.534657,501.894,504.195
2022_09_27_B09_g201b20035_f009_074.JPG,62.5505977,150.8137165,502.35,0.99,6.1,-118.48,2022-09-27 01:10:46.934604,497.63,499.99
2022_09_27_B09_g201b20035_f009_075.JPG,62.550462,150.8132045,501.557,4.59,3.51,-121.02,2022-09-27 01:10:48.354641,497.525,499.541
2022_09_27_B09_g201b20035_f009_076.JPG,62.5503205,150.8127348,498.561,-1.46,-3.35,-123.89,2022-09-27 01:10:49.734680,494.549,496.555
2022_09_27_B09_g201b20035_f009_077.JPG,62.5501717,150.8122632,493.8,-2.2,-1.71,-124.44,2022-09-27 01:10:51.134680,489.675,491.7375
2022_09_27_B09_g201b20035_f009_078.JPG,62.5500195,150.8117796,489.662,-1.82,0.01,-124.29,2022-09-27 01:10:52.534709,485.682,487.672
2022_09_27_B09_g201b20035_f009_079.JPG,62.5498691,150.811295,486.665,-1.03,1.1,-123.85,2022-09-27 01:10:53.934807,482.711,484.688
2022_09_27_B09_g201b20035_f009_080.JPG,62.5497191,150.8108155,482.969,-2.91,-1.0,-124.24,2022-09-27 01:10:55.354775,479.652,481.3105
2022_09_27_B09_g201b20035_f009_081.JPG,62.5495674,150.8103337,479.362,-1.72,-0.52,-124.67,2022-09-27 01:10:56.734860,475.809,477.5855
2022_09_27_B09_g201b20035_f009_082.JPG,62.5494106,150.8098493,476.02,-4.42,1.12,-125.3,2022-09-27 01:10:58.134807,472.542,474.281
2022_09_27_B09_g201b20035_f009_083.JPG,62.5492563,150.8093589,473.293,-3.48,2.38,-123.9,2022-09-27 01:10:59.534823,470.507,471.9
2022_09_27_B09_g201b20035_f009_084.JPG,62.5491044,150.8088658,471.269,-1.04,1.74,-124.01,2022-09-27 01:11:00.935007,468.294,469.7815
2022_09_27_B09_g201b20035_f009_085.JPG,62.5489492,150.8083748,469.247,-2.86,3.06,-124.25,2022-09-27 01:11:02.354959,466.351,467.799
2022_09_27_B09_g201b20035_f009_086.JPG,62.5487987,150.8078855,467.665,-2.59,2.61,-123.24,2022-09-27 01:11:03.734979,465.077,466.371
2022_09_27_B09_g201b20035_f009_087.JPG,62.5486503,150.807399,465.643,0.97,0.86,-123.85,2022-09-27 01:11:05.134976,462.904,464.2735
2022_09_27_B09_g201b20035_f009_088.JPG,62.548495,150.8069068,462.922,-3.24,3.15,-124.13,2022-09-27 01:11:06.534959,460.085,461.5035
2022_09_27_B09_g201b20035_f009_089.JPG,62.5483393,150.8063993,462.219,-2.71,6.87,-123.25,2022-09-27 01:11:07.935011,459.292,460.7555
2022_09_27_B09_g201b20035_f009_090.JPG,62.5481894,150.8058902,463.712,-0.39,8.22,-122.44,2022-09-27 01:11:09.355091,460.909,462.3105
2022_09_27_B09_g201b20035_f009_091.JPG,62.548042,150.8053942,465.469,-0.79,5.84,-123.16,2022-09-27 01:11:10.735062,462.963,464.216
2022_09_27_B09_g201b20035_f009_092.JPG,62.5478923,150.8049022,466.172,-3.97,6.45,-123.28,2022-09-27 01:11:12.135062,463.861,465.0165
2022_09_27_B09_g201b20035_f009_093.JPG,62.5477434,150.804409,467.313,-2.92,6.18,-123.28,2022-09-27 01:11:13.535135,464.792,466.0525
2022_09_27_B09_g201b20035_f009_094.JPG,62.5475944,150.8039153,468.106,-2.41,6.56,-122.97,2022-09-27 01:11:14.935117,465.538,466.822
2022_09_27_B09_g201b20035_f009_095.JPG,62.5474483,150.803419,469.073,-1.39,6.48,-122.33,2022-09-27 01:11:16.355227,466.331,467.702
2022_09_27_B09_g201b20035_f009_096.JPG,62.5473034,150.8029241,469.863,1.06,6.41,-122.53,2022-09-27 01:11:17.735191,467.219,468.541
2022_09_27_B09_g201b20035_f009_097.JPG,62.5471554,150.8024375,470.83,-3.29,5.61,-123.58,2022-09-27 01:11:19.135220,468.244,469.537
2022_09_27_B09_g201b20035_f009_098.JPG,62.5470095,150.80195,471.094,-0.84,5.2,-122.8,2022-09-27 01:11:20.535230,468.813,469.9535
2022_09_27_B09_g201b20035_f009_099.JPG,62.5468645,150.8014655,471.359,-0.8,4.79,-122.93,2022-09-27 01:11:21.935259,469.254,470.3065
2022_09_27_B09_g201b20035_f009_100.JPG,62.5467187,150.8009803,471.797,-1.19,3.81,-123.11,2022-09-27 01:11:23.355324,469.444,470.6205
2022_09_27_B09_g201b20035_f009_101.JPG,62.546573,150.8004945,472.326,-1.7,5.72,-122.91,2022-09-27 01:11:24.735360,469.627,470.9765
2022_09_27_B09_g201b20035_f009_102.JPG,62.5464299,150.8000097,472.587,-1.53,5.25,-122.5,2022-09-27 01:11:26.135476,470.209,471.398
2022_09_27_B09_g201b20035_f009_103.JPG,62.546286,150.7995267,472.236,-1.21,2.77,-123.06,2022-09-27 01:11:27.535372,469.8,471.018
2022_09_27_B09_g201b20035_f009_104.JPG,62.5461395,150.7990466,472.764,0.45,5.9,-123.8,2022-09-27 01:11:28.935453,470.05,471.407
2022_09_27_B09_g201b20035_f009_105.JPG,62.5459966,150.798572,473.203,-1.44,4.17,-122.85,2022-09-27 01:11:30.355462,470.455,471.829
2022_09_27_B09_g201b20035_f009_106.JPG,62.5458557,150.7980968,471.62,-1.66,0.24,-122.78,2022-09-27 01:11:31.735516,469.686,470.653
2022_09_27_B09_g201b20035_f009_107.JPG,62.5457312,150.7976834,469.512,0.95,0.26,-123.69,2022-09-27 01:11:33.135516,467.335,468.4235
2022_09_27_B09_g201b20035_f009_108.JPG,62.545557,150.7971113,468.106,-2.23,7.42,-122.93,2022-09-27 01:11:34.535481,465.536,466.821
2022_09_27_B09_g201b20035_f009_109.JPG,62.545411,150.7966107,469.073,0.98,6.34,-122.57,2022-09-27 01:11:35.935785,466.736,467.9045
2022_09_27_B09_g201b20035_f009_110.JPG,62.5452636,150.7961219,470.392,0.25,5.97,-123.56,2022-09-27 01:11:37.355591,467.647,469.0195
2022_09_27_B09_g201b20035_f009_111.JPG,62.5451145,150.7956323,470.653,-2.7,4.09,-123.25,2022-09-27 01:11:38.735669,468.489,469.571
2022_09_27_B09_g201b20035_f009_112.JPG,62.544966,150.7951387,471.446,1.59,2.92,-123.02,2022-09-27 01:11:40.135618,469.693,470.5695
2022_09_27_B09_g201b20035_f009_113.JPG,62.5448177,150.7946518,472.062,0.08,2.5,-123.3,2022-09-27 01:11:41.532883,470.489,471.2755
2022_09_27_B09_g201b20035_f009_114.JPG,62.5446739,150.7941775,471.533,1.39,2.25,-122.96,2022-09-27 01:11:42.935647,470.359,470.946
2022_09_27_B09_g201b20035_f009_115.JPG,62.5445302,150.7937137,469.425,-1.07,-0.93,-124.18,2022-09-27 01:11:44.355657,468.356,468.8905
2022_09_27_B09_g201b20035_f009_116.JPG,62.5444835,150.793322,469.599,1.2,4.8,-90.49,2022-09-27 01:12:14.533453,468.756,469.1775
2022_09_27_B09_g201b20035_f009_117.JPG,62.5445557,150.7935961,465.03,2.23,5.29,-34.29,2022-09-27 01:13:05.354362,465.188,465.109
2022_09_27_B09_g201b20035_f009_118.JPG,62.5447866,150.7932369,464.328,-0.99,7.74,-36.4,2022-09-27 01:13:06.734386,464.047,464.1875
2022_09_27_B09_g201b20035_f009_119.JPG,62.5450215,150.7928677,464.415,-1.21,9.9,-35.86,2022-09-27 01:13:08.134443,463.66,464.0375
2022_09_27_B09_g201b20035_f009_120.JPG,62.5452552,150.7924989,465.643,3.18,11.08,-36.2,2022-09-27 01:13:09.534448,464.427,465.035
2022_09_27_B09_g201b20035_f009_121.JPG,62.5454889,150.7921239,467.049,-3.19,13.4,-36.15,2022-09-27 01:13:10.934533,465.355,466.202
2022_09_27_B09_g201b20035_f009_122.JPG,62.5457263,150.7917573,469.863,3.63,13.54,-35.77,2022-09-27 01:13:12.354523,468.06,468.9615
2022_09_27_B09_g201b20035_f009_123.JPG,62.5459586,150.7913845,473.644,-5.08,14.57,-36.7,2022-09-27 01:13:13.734553,471.749,472.6965
2022_09_27_B09_g201b20035_f009_124.JPG,62.5461903,150.7910281,477.513,1.11,13.16,-35.28,2022-09-27 01:13:15.134587,475.81,476.6615
2022_09_27_B09_g201b20035_f009_125.JPG,62.546417,150.790671,479.888,1.21,9.97,-36.57,2022-09-27 01:13:16.534558,478.261,479.0745
2022_09_27_B09_g201b20035_f009_126.JPG,62.5466413,150.7903082,480.416,-4.24,8.76,-36.69,2022-09-27 01:13:17.934671,479.061,479.7385
2022_09_27_B09_g201b20035_f009_127.JPG,62.5468677,150.7899536,481.473,-0.32,9.59,-35.75,2022-09-27 01:13:19.354621,479.525,480.499
2022_09_27_B09_g201b20035_f009_128.JPG,62.5470924,150.789603,481.738,1.46,8.74,-36.23,2022-09-27 01:13:20.734757,480.22,480.979
2022_09_27_B09_g201b20035_f009_129.JPG,62.5473135,150.7892409,480.768,-2.91,4.9,-37.4,2022-09-27 01:13:22.134724,479.178,479.973
2022_09_27_B09_g201b20035_f009_130.JPG,62.5475416,150.7888784,479.185,-3.21,7.22,-34.98,2022-09-27 01:13:23.534737,477.261,478.223
2022_09_27_B09_g201b20035_f009_131.JPG,62.5477737,150.788525,479.537,3.3,8.42,-35.43,2022-09-27 01:13:24.934836,476.725,478.131
2022_09_27_B09_g201b20035_f009_132.JPG,62.5480002,150.7881613,478.834,-2.61,7.01,-36.55,2022-09-27 01:13:26.354751,476.399,477.6165
2022_09_27_B09_g201b20035_f009_133.JPG,62.548228,150.7877983,478.041,0.25,7.18,-35.8,2022-09-27 01:13:27.734772,475.3,476.6705
2022_09_27_B09_g201b20035_f009_134.JPG,62.5484567,150.78743,476.722,-0.66,7.49,-36.75,2022-09-27 01:13:29.134839,473.916,475.319
2022_09_27_B09_g201b20035_f009_135.JPG,62.5486886,150.7870569,476.81,-2.81,9.15,-36.25,2022-09-27 01:13:30.534911,473.454,475.132
2022_09_27_B09_g201b20035_f009_136.JPG,62.5489218,150.7866982,478.131,-1.45,9.3,-35.12,2022-09-27 01:13:31.934840,475.165,476.648
2022_09_27_B09_g201b20035_f009_137.JPG,62.5491509,150.786352,478.834,2.94,6.55,-35.01,2022-09-27 01:13:33.354847,475.685,477.2595
2022_09_27_B09_g201b20035_f009_138.JPG,62.5493797,150.7859918,479.098,6.04,4.11,-36.51,2022-09-27 01:13:34.734891,475.01,477.054
2022_09_27_B09_g201b20035_f009_139.JPG,62.5496052,150.7856093,478.921,-6.02,10.88,-38.29,2022-09-27 01:13:36.134955,475.356,477.1385
2022_09_27_B09_g201b20035_f009_140.JPG,62.5498283,150.7852522,478.834,-2.23,7.43,-35.36,2022-09-27 01:13:37.534986,475.766,477.3
2022_09_27_B09_g201b20035_f009_141.JPG,62.550056,150.7849048,478.131,2.6,3.29,-35.55,2022-09-27 01:13:38.935038,474.82,476.4755
2022_09_27_B09_g201b20035_f009_142.JPG,62.5502869,150.7845357,476.722,-1.92,6.02,-36.4,2022-09-27 01:13:40.355003,473.018,474.87
2022_09_27_B09_g201b20035_f009_143.JPG,62.5505209,150.7841656,476.81,-0.33,10.62,-36.27,2022-09-27 01:13:41.735030,472.785,474.7975
2022_09_27_B09_g201b20035_f009_144.JPG,62.5507497,150.7838047,478.218,-0.69,10.27,-35.77,2022-09-27 01:13:43.135072,474.468,476.343
2022_09_27_B09_g201b20035_f009_145.JPG,62.550976,150.7834507,479.626,1.11,8.91,-35.68,2022-09-27 01:13:44.535115,475.522,477.574
2022_09_27_B09_g201b20035_f009_146.JPG,62.5512001,150.7830933,480.242,-1.83,8.37,-36.35,2022-09-27 01:13:45.935120,475.877,478.0595
2022_09_27_B09_g201b20035_f009_147.JPG,62.5514268,150.782738,480.152,-0.78,8.02,-35.53,2022-09-27 01:13:47.355119,476.058,478.105
2022_09_27_B09_g201b20035_f009_148.JPG,62.551655,150.7823831,480.504,0.56,7.32,-36.14,2022-09-27 01:13:48.735215,475.959,478.2315
2022_09_27_B09_g201b20035_f009_149.JPG,62.5518824,150.7820182,480.593,-2.25,9.19,-36.81,2022-09-27 01:13:50.135243,475.783,478.188
2022_09_27_B09_g201b20035_f009_150.JPG,62.5521134,150.781652,481.032,-6.19,8.05,-35.79,2022-09-27 01:13:51.535209,476.987,479.0095
2022_09_27_B09_g201b20035_f009_151.JPG,62.5523545,150.7812998,482.882,9.57,7.01,-34.07,2022-09-27 01:13:52.935326,478.785,480.8335
2022_09_27_B09_g201b20035_f009_152.JPG,62.5525588,150.7809689,483.939,2.98,6.63,-37.73,2022-09-27 01:13:54.135290,479.344,481.6415
2022_09_27_B09_g201b20035_f009_153.JPG,62.5527584,150.7806235,483.233,-8.81,7.26,-38.76,2022-09-27 01:13:55.355275,478.831,481.032
2022_09_27_B09_g201b20035_f009_154.JPG,62.5529643,150.7803027,482.617,-3.4,10.35,-34.02,2022-09-27 01:13:56.535327,478.479,480.548
2022_09_27_B09_g201b20035_f009_155.JPG,62.5532014,150.7799508,482.617,9.08,5.32,-35.76,2022-09-27 01:13:57.935367,478.791,480.704
2022_09_27_B09_g201b20035_f009_156.JPG,62.5534281,150.7795715,482.002,-6.66,7.51,-37.63,2022-09-27 01:13:59.355329,477.403,479.7025
2022_09_27_B09_g201b20035_f009_157.JPG,62.5536642,150.7792128,483.056,3.05,12.12,-34.44,2022-09-27 01:14:00.735449,478.615,480.8355
2022_09_27_B09_g201b20035_f009_158.JPG,62.5538857,150.7788676,485.083,1.55,7.04,-36.3,2022-09-27 01:14:02.135413,481.244,483.1635
2022_09_27_B09_g201b20035_f009_159.JPG,62.5541018,150.7785173,485.434,-0.08,4.23,-36.89,2022-09-27 01:14:03.535442,480.96,483.197
2022_09_27_B09_g201b20035_f009_160.JPG,62.5543273,150.7781523,484.554,-2.8,2.56,-36.11,2022-09-27 01:14:04.935558,480.183,482.3685
2022_09_27_B09_g201b20035_f009_161.JPG,62.5545645,150.7777913,485.698,10.18,7.28,-34.63,2022-09-27 01:14:06.355479,480.869,483.2835
2022_09_27_B09_g201b20035_f009_162.JPG,62.5547932,150.7774152,487.019,-5.13,6.7,-37.97,2022-09-27 01:14:07.735486,482.756,484.8875
2022_09_27_B09_g201b20035_f009_163.JPG,62.5550249,150.7770522,488.779,3.89,8.72,-34.67,2022-09-27 01:14:09.135581,483.999,486.389
2022_09_27_B09_g201b20035_f009_164.JPG,62.5552546,150.7766932,489.485,3.3,4.03,-36.36,2022-09-27 01:14:10.535610,484.981,487.233
2022_09_27_B09_g201b20035_f009_165.JPG,62.5554838,150.776321,489.572,-1.83,5.03,-36.3,2022-09-27 01:14:11.935661,484.815,487.1935
2022_09_27_B09_g201b20035_f009_166.JPG,62.5557159,150.7759631,489.662,0.8,8.82,-35.03,2022-09-27 01:14:13.355629,485.467,487.5645
2022_09_27_B09_g201b20035_f009_167.JPG,62.5559415,150.7756123,488.164,3.39,2.44,-35.96,2022-09-27 01:14:14.735627,484.02,486.092
2022_09_27_B09_g201b20035_f009_168.JPG,62.5561723,150.7752325,485.611,-3.35,4.52,-37.23,2022-09-27 01:14:16.135714,480.038,482.8245
2022_09_27_B09_g201b20035_f009_169.JPG,62.5563819,150.7748985,484.641,-0.35,11.85,-35.95,2022-09-27 01:14:17.355666,479.278,481.9595000000001
2022_09_27_B09_g201b20035_f009_170.JPG,62.5565835,150.7745808,485.785,-2.52,13.1,-36.02,2022-09-27 01:14:18.535697,481.175,483.48
2022_09_27_B09_g201b20035_f009_171.JPG,62.5568056,150.7742251,486.665,0.2,6.88,-36.64,2022-09-27 01:14:19.935779,482.065,484.365
2022_09_27_B09_g201b20035_f009_172.JPG,62.5570275,150.7738562,487.194,4.28,8.58,-38.16,2022-09-27 01:14:21.355745,481.478,484.336
2022_09_27_B09_g201b20035_f009_173.JPG,62.5572497,150.7734545,489.131,-1.52,17.06,-40.05,2022-09-27 01:14:22.735765,482.594,485.8625
2022_09_27_B09_g201b20035_f009_174.JPG,62.5574625,150.7730638,494.241,10.21,21.56,-41.26,2022-09-27 01:14:24.135901,488.542,491.3915
2022_09_27_B09_g201b20035_f009_175.JPG,62.5576491,150.7726572,499.882,3.98,17.2,-47.1,2022-09-27 01:14:25.535884,494.138,497.01
2022_09_27_B09_g201b20035_f009_176.JPG,62.5578237,150.7722377,504.379,-5.06,19.11,-47.03,2022-09-27 01:14:26.935892,498.423,501.401
2022_09_27_B09_g201b20035_f009_177.JPG,62.5579979,150.7718422,508.261,17.77,16.63,-47.63,2022-09-27 01:14:28.355918,502.684,505.4725
2022_09_27_B09_g201b20035_f009_178.JPG,62.5581645,150.7713325,511.26,1.05,9.83,-58.28,2022-09-27 01:14:29.935911,504.916,508.088
2022_09_27_B09_g201b20035_f009_179.JPG,62.5583031,150.7708502,514.438,-6.44,19.94,-56.53,2022-09-27 01:14:31.355942,508.151,511.2945
2022_09_27_B09_g201b20035_f009_180.JPG,62.5584654,150.7703507,520.09,14.03,16.34,-55.7,2022-09-27 01:14:32.935963,514.645,517.3675000000001
2022_09_27_B09_g201b20035_f009_181.JPG,62.5585962,150.7698473,523.536,-20.28,5.25,-62.69,2022-09-27 01:14:34.538837,518.144,520.8399999999999
2022_09_27_B09_g201b20035_f009_182.JPG,62.5587569,150.769331,522.299,9.4,5.7,-53.44,2022-09-27 01:14:36.136069,517.06,519.6795
2022_09_27_B09_g201b20035_f009_183.JPG,62.5589009,150.7688461,521.327,3.52,4.95,-59.03,2022-09-27 01:14:37.536091,515.421,518.374
2022_09_27_B09_g201b20035_f009_184.JPG,62.5590404,150.7683283,520.0,-5.76,9.28,-59.78,2022-09-27 01:14:38.936064,513.996,516.998
2022_09_27_B09_g201b20035_f009_185.JPG,62.5591871,150.7678073,520.09,-6.17,9.91,-58.44,2022-09-27 01:14:40.356156,513.929,517.0095
2022_09_27_B09_g201b20035_f009_186.JPG,62.559337,150.7672982,521.15,4.48,11.25,-57.81,2022-09-27 01:14:41.736189,515.406,518.278
2022_09_27_B09_g201b20035_f009_187.JPG,62.5594753,150.7668041,520.09,-5.82,1.9,-58.87,2022-09-27 01:14:43.136191,515.146,517.6179999999999
2022_09_27_B09_g201b20035_f009_188.JPG,62.5596197,150.7663156,517.704,0.45,-0.79,-57.29,2022-09-27 01:14:44.536264,512.664,515.184
2022_09_27_B09_g201b20035_f009_189.JPG,62.5597654,150.7658123,514.174,0.99,-0.02,-58.66,2022-09-27 01:14:45.936215,509.074,511.624
2022_09_27_B09_g201b20035_f009_190.JPG,62.5599099,150.7652898,511.26,-4.23,4.36,-59.07,2022-09-27 01:14:47.356240,506.196,508.728
2022_09_27_B09_g201b20035_f009_191.JPG,62.5600585,150.764778,508.438,1.2,0.42,-57.79,2022-09-27 01:14:48.736206,503.897,506.1675
2022_09_27_B09_g201b20035_f009_192.JPG,62.5602066,150.7642607,505.262,-0.5,-0.06,-58.51,2022-09-27 01:14:50.136292,500.312,502.787
2022_09_27_B09_g201b20035_f009_193.JPG,62.5603568,150.7637337,501.821,-0.11,2.18,-57.68,2022-09-27 01:14:51.536272,496.783,499.302
2022_09_27_B09_g201b20035_f009_194.JPG,62.5605086,150.7632078,499.0,1.73,1.96,-58.52,2022-09-27 01:14:52.936357,493.94,496.47
2022_09_27_B09_g201b20035_f009_195.JPG,62.560654,150.7626799,496.357,-4.71,2.91,-59.25,2022-09-27 01:14:54.356345,491.484,493.9205
2022_09_27_B09_g201b20035_f009_196.JPG,62.5608039,150.7621623,493.448,-0.11,1.36,-57.32,2022-09-27 01:14:55.736388,488.591,491.0195
2022_09_27_B09_g201b20035_f009_197.JPG,62.5609547,150.7616433,490.188,1.92,1.11,-58.33,2022-09-27 01:14:57.136389,485.504,487.846
2022_09_27_B09_g201b20035_f009_198.JPG,62.5611016,150.7611127,487.548,-5.39,3.24,-58.98,2022-09-27 01:14:58.536471,482.712,485.13
2022_09_27_B09_g201b20035_f009_199.JPG,62.5612577,150.760588,485.785,2.47,6.42,-56.85,2022-09-27 01:14:59.936494,481.06,483.4225
2022_09_27_B09_g201b20035_f009_200.JPG,62.5614092,150.7600717,484.906,0.4,3.19,-57.9,2022-09-27 01:15:01.356463,480.331,482.6185
2022_09_27_B09_g201b20035_f009_201.JPG,62.5615569,150.7595557,483.32,0.68,3.4,-58.09,2022-09-27 01:15:02.736497,478.545,480.9325
